<?xml version="1.0" encoding="UTF-8" standalone="no" ?><gpx xmlns="http://www.topografix.com/GPX/1/1" xmlns:gpxx="http://www.garmin.com/xmlschemas/GpxExtensions/v3" xmlns:wptx1="http://www.garmin.com/xmlschemas/WaypointExtension/v1" xmlns:gpxtpx="http://www.garmin.com/xmlschemas/TrackPointExtension/v1" creator="GPSMAP 64" version="1.1" xmlns:xsi="http://www.w3.org/2001/XMLSchema-instance" xsi:schemaLocation="http://www.topografix.com/GPX/1/1 http://www.topografix.com/GPX/1/1/gpx.xsd http://www.garmin.com/xmlschemas/GpxExtensions/v3 http://www8.garmin.com/xmlschemas/GpxExtensionsv3.xsd http://www.garmin.com/xmlschemas/TrackStatsExtension/v1 http://www8.garmin.com/xmlschemas/TrackStatsExtension.xsd http://www.garmin.com/xmlschemas/WaypointExtension/v1 http://www8.garmin.com/xmlschemas/WaypointExtensionv1.xsd http://www.garmin.com/xmlschemas/TrackPointExtension/v1 http://www.garmin.com/xmlschemas/TrackPointExtensionv1.xsd"><metadata><link href="http://www.garmin.com"><text>Garmin International</text></link><time>2017-10-03T04:57:45Z</time></metadata><wpt lat="-35.145194" lon="144.148121"><ele>70.035553</ele><time>2017-10-03T04:57:45Z</time><name>DRUM 1</name><sym>Flag, Blue</sym></wpt><wpt lat="-35.146297" lon="144.147472"><ele>72.930679</ele><time>2017-10-03T04:59:08Z</time><name>SP ?</name><sym>Flag, Blue</sym></wpt><wpt lat="-35.146516" lon="144.146246"><ele>75.383278</ele><time>2017-10-03T05:00:01Z</time><name>DRUM V</name><sym>Flag, Blue</sym></wpt><wpt lat="-35.146533" lon="144.145600"><ele>72.237190</ele><time>2017-10-03T05:00:50Z</time><name>DRUM WS</name><sym>Flag, Blue</sym></wpt><wpt lat="-35.146895" lon="144.146209"><ele>70.639343</ele><time>2017-10-03T05:16:56Z</time><name>FIRE CIRCLE</name><sym>Flag, Blue</sym></wpt><wpt lat="-35.148499" lon="144.146502"><ele>69.491806</ele><time>2017-10-03T05:18:15Z</time><name>CROP CIRCLE</name><sym>Flag, Blue</sym></wpt><wpt lat="-35.149302" lon="144.147462"><ele>69.724174</ele><time>2017-10-03T05:19:30Z</time><name>MARKET</name><sym>Flag, Blue</sym></wpt><wpt lat="-35.149698" lon="144.145957"><ele>72.263733</ele><time>2017-10-03T05:21:04Z</time><name>FAMILY</name><sym>Flag, Blue</sym></wpt></gpx>