{
"type": "FeatureCollection",
"crs": { "type": "name", "properties": { "name": "urn:ogc:def:crs:OGC:1.3:CRS84" } },
"features": [
{ "type": "Feature", "properties": { "x1": "144.1457", "y1": "-35.15089", "x2": "144.1457", "y2": "-35.15089", "name": " Permaculture - limit ", "": "" }, "geometry": { "type": "Point", "coordinates": [ 144.1457, -35.15089 ] } },
{ "type": "Feature", "properties": { "x1": "144.1445", "y1": "-35.15024", "x2": "144.1445", "y2": "-35.15024", "name": " Permaculture - limit ", "": "" }, "geometry": { "type": "Point", "coordinates": [ 144.1445, -35.15024 ] } },
{ "type": "Feature", "properties": { "x1": "144.14944", "y1": "-35.15015", "x2": "144.14944", "y2": "-35.15015", "name": " Rainbow cooking", "": "" }, "geometry": { "type": "Point", "coordinates": [ 144.14944, -35.15015 ] } },
{ "type": "Feature", "properties": { "x1": "144.14929", "y1": "-35.14996", "x2": "144.14929", "y2": "-35.14996", "name": " Rainbow entrance", "": "" }, "geometry": { "type": "Point", "coordinates": [ 144.14929, -35.14996 ] } },
{ "type": "Feature", "properties": { "x1": "144.14917", "y1": "-35.15278", "x2": "144.14917", "y2": "-35.15278", "name": " Listen to the Grass Grow", "": "" }, "geometry": { "type": "Point", "coordinates": [ 144.14917, -35.15278 ] } },
{ "type": "Feature", "properties": { "x1": "144.14817", "y1": "-35.1452", "x2": "144.14817", "y2": "-35.1452", "name": " Drumming Village limit", "": "" }, "geometry": { "type": "Point", "coordinates": [ 144.14817, -35.1452 ] } },
{ "type": "Feature", "properties": { "x1": "144.14597", "y1": "-35.14636", "x2": "144.14597", "y2": "-35.14636", "name": " Drumming Circle", "": "" }, "geometry": { "type": "Point", "coordinates": [ 144.14597, -35.14636 ] } },
{ "type": "Feature", "properties": { "x1": "144.14527", "y1": "-35.14654", "x2": "144.14527", "y2": "-35.14654", "name": " Drumming Village limit", "": "" }, "geometry": { "type": "Point", "coordinates": [ 144.14527, -35.14654 ] } },
{ "type": "Feature", "properties": { "x1": "144.14761", "y1": "-35.14593", "x2": "144.14761", "y2": "-35.14593", "name": " Drummers community tent - approx ", "": "" }, "geometry": { "type": "Point", "coordinates": [ 144.14761, -35.14593 ] } },
{ "type": "Feature", "properties": { "x1": "144.14285", "y1": "-35.14879", "x2": "144.14285", "y2": "-35.14879", "name": " Nudies Village", "": "" }, "geometry": { "type": "Point", "coordinates": [ 144.14285, -35.14879 ] } },
{ "type": "Feature", "properties": { "x1": "144.14774", "y1": "-35.15183", "x2": "144.14774", "y2": "-35.15183", "name": " Community Cooking", "": "" }, "geometry": { "type": "Point", "coordinates": [ 144.14774, -35.15183 ] } },
{ "type": "Feature", "properties": { "x1": "144.15059", "y1": "-35.15218", "x2": "144.15059", "y2": "-35.15218", "name": " Poly Space", "": "" }, "geometry": { "type": "Point", "coordinates": [ 144.15059, -35.15218 ] } },
{ "type": "Feature", "properties": { "x1": "144.1421", "y1": "-35.14744", "x2": "144.1421", "y2": "-35.14744", "name": " Veg out (for carnivores)", "": "" }, "geometry": { "type": "Point", "coordinates": [ 144.1421, -35.14744 ] } },
{ "type": "Feature", "properties": { "x1": "144.14294", "y1": "-35.14759", "x2": "144.14294", "y2": "-35.14759", "name": " Arts", "": "" }, "geometry": { "type": "Point", "coordinates": [ 144.14294, -35.14759 ] } },
{ "type": "Feature", "properties": { "x1": "144.148", "y1": "-35.15092", "x2": "144.148", "y2": "-35.15092", "name": " Bliss", "": "" }, "geometry": { "type": "Point", "coordinates": [ 144.148, -35.15092 ] } },
{ "type": "Feature", "properties": { "x1": "144.14621", "y1": "-35.14994", "x2": "144.14621", "y2": "-35.14994", "name": " Family village red sign", "": "" }, "geometry": { "type": "Point", "coordinates": [ 144.14621, -35.14994 ] } },
{ "type": "Feature", "properties": { "x1": "144.14588", "y1": "-35.14969", "x2": "144.14588", "y2": "-35.14969", "name": " Family village black sign ", "": "" }, "geometry": { "type": "Point", "coordinates": [ 144.14588, -35.14969 ] } },
{ "type": "Feature", "properties": { "x1": "144.14583", "y1": "-35.14978", "x2": "144.14583", "y2": "-35.14978", "name": " Family ", "": "" }, "geometry": { "type": "Point", "coordinates": [ 144.14583, -35.14978 ] } },
{ "type": "Feature", "properties": { "x1": "144.14932", "y1": "-35.14916", "x2": "144.14932", "y2": "-35.14916", "name": " Gypsy kitchen - approx ", "": "" }, "geometry": { "type": "Point", "coordinates": [ 144.14932, -35.14916 ] } },
{ "type": "Feature", "properties": { "x1": "144.14662", "y1": "-35.15111", "x2": "144.14662", "y2": "-35.15111", "name": " Uncertainty Village - approx ", "": "" }, "geometry": { "type": "Point", "coordinates": [ 144.14662, -35.15111 ] } },
{ "type": "Feature", "properties": { "x1": "144.14603", "y1": "-35.14732", "x2": "144.14603", "y2": "-35.14732", "name": " Hub kitchen", "": "" }, "geometry": { "type": "Point", "coordinates": [ 144.14603, -35.14732 ] } },
{ "type": "Feature", "properties": { "x1": "144.14586", "y1": "-35.14732", "x2": "144.14586", "y2": "-35.14732", "name": " First Aid", "": "" }, "geometry": { "type": "Point", "coordinates": [ 144.14586, -35.14732 ] } },
{ "type": "Feature", "properties": { "x1": "144.14587", "y1": "-35.14715", "x2": "144.14587", "y2": "-35.14715", "name": " Ops hut", "": "" }, "geometry": { "type": "Point", "coordinates": [ 144.14587, -35.14715 ] } },
{ "type": "Feature", "properties": { "x1": "144.14613", "y1": "-35.1473", "x2": "144.14613", "y2": "-35.1473", "name": " hub fridge", "": "" }, "geometry": { "type": "Point", "coordinates": [ 144.14613, -35.1473 ] } },
{ "type": "Feature", "properties": { "x1": "144.1438", "y1": "-35.14749", "x2": "144.1438", "y2": "-35.14749", "name": " Craft Cafe - approx", "": "" }, "geometry": { "type": "Point", "coordinates": [ 144.1438, -35.14749 ] } },
{ "type": "Feature", "properties": { "x1": "144.14388", "y1": "-35.14999", "x2": "144.14388", "y2": "-35.14999", "name": " Open Stage 1", "": "" }, "geometry": { "type": "Point", "coordinates": [ 144.14388, -35.14999 ] } },
{ "type": "Feature", "properties": { "x1": "144.14329", "y1": "-35.14975", "x2": "144.14329", "y2": "-35.14975", "name": " Open Stage 2", "": "" }, "geometry": { "type": "Point", "coordinates": [ 144.14329, -35.14975 ] } },
{ "type": "Feature", "properties": { "x1": "144.14371", "y1": "-35.14758", "x2": "144.14371", "y2": "-35.14758", "name": " Arts Gate (firebird)", "": "" }, "geometry": { "type": "Point", "coordinates": [ 144.14371, -35.14758 ] } },
{ "type": "Feature", "properties": { "x1": "144.14775", "y1": "-35.1493", "x2": "144.14775", "y2": "-35.1493", "name": " market fire circle", "": "" }, "geometry": { "type": "Point", "coordinates": [ 144.14775, -35.1493 ] } },
{ "type": "Feature", "properties": { "x1": "144.14403", "y1": "-35.14767", "x2": "144.14403", "y2": "-35.14767", "name": " Labyrinth ", "": "" }, "geometry": { "type": "Point", "coordinates": [ 144.14403, -35.14767 ] } },
{ "type": "Feature", "properties": { "x1": "144.14413", "y1": "-35.14776", "x2": "144.14413", "y2": "-35.14776", "name": " Huggle Puggle", "": "" }, "geometry": { "type": "Point", "coordinates": [ 144.14413, -35.14776 ] } },
{ "type": "Feature", "properties": { "x1": "144.14632", "y1": "-35.14864", "x2": "144.14632", "y2": "-35.14864", "name": " fire spinning circle ", "": "" }, "geometry": { "type": "Point", "coordinates": [ 144.14632, -35.14864 ] } },
{ "type": "Feature", "properties": { "x1": "144.14759", "y1": "-35.15105", "x2": "144.14759", "y2": "-35.15105", "name": " Library", "": "" }, "geometry": { "type": "Point", "coordinates": [ 144.14759, -35.15105 ] } },
{ "type": "Feature", "properties": { "x1": "144.14516", "y1": "-35.14809", "x2": "144.14516", "y2": "-35.14809", "name": " Coral's Installation (Sundial)", "": "" }, "geometry": { "type": "Point", "coordinates": [ 144.14516, -35.14809 ] } },
{ "type": "Feature", "properties": { "x1": "144.14176", "y1": "-35.14838", "x2": "144.14176", "y2": "-35.14838", "name": " The Sound Garden", "": "" }, "geometry": { "type": "Point", "coordinates": [ 144.14176, -35.14838 ] } },
{ "type": "Feature", "properties": { "x1": "144.14983", "y1": "-35.14913", "x2": "144.14983", "y2": "-35.14913", "name": " Sacred Space and midden", "": "" }, "geometry": { "type": "Point", "coordinates": [ 144.14983, -35.14913 ] } },
{ "type": "Feature", "properties": { "x1": "144.14449", "y1": "-35.14645", "x2": "144.14449", "y2": "-35.14645", "name": " Sacred Space and ?workshops? ntc", "": "" }, "geometry": { "type": "Point", "coordinates": [ 144.14449, -35.14645 ] } },
{ "type": "Feature", "properties": { "x1": "144.1452", "y1": "-35.14894", "x2": "144.1452", "y2": "-35.14894", "name": " Aboriginal Elders' Camp", "": "" }, "geometry": { "type": "Point", "coordinates": [ 144.1452, -35.14894 ] } },
{ "type": "Feature", "properties": { "x1": "144.14573", "y1": "-35.1488", "x2": "144.14573", "y2": "-35.1488", "name": " Aboriginal activity and workshop ntc ", "": "" }, "geometry": { "type": "Point", "coordinates": [ 144.14573, -35.1488 ] } },
{ "type": "Feature", "properties": { "x1": "144.14604", "y1": "-35.14714", "x2": "144.14604", "y2": "-35.14714", "name": " water tank - Hub ", "": "" }, "geometry": { "type": "Point", "coordinates": [ 144.14604, -35.14714 ] } },
{ "type": "Feature", "properties": { "x1": "144.14806", "y1": "-35.15075", "x2": "144.14806", "y2": "-35.15075", "name": " water tank - Bliss ", "": "" }, "geometry": { "type": "Point", "coordinates": [ 144.14806, -35.15075 ] } },
{ "type": "Feature", "properties": { "x1": "144.14", "y1": "-35.15", "x2": "144.14", "y2": "-35.15", "name": " water tank Arts - tbl", "": "" }, "geometry": { "type": "Point", "coordinates": [ 144.14, -35.15 ] } },
{ "type": "Feature", "properties": { "x1": "144.14049", "y1": "-35.14843", "x2": "144.14049", "y2": "-35.14843", "name": " 5 fire drums", "": "" }, "geometry": { "type": "Point", "coordinates": [ 144.14049, -35.14843 ] } },
{ "type": "Feature", "properties": { "x1": "144.14377", "y1": "-35.14965", "x2": "144.14377", "y2": "-35.14965", "name": " water shower point", "": "" }, "geometry": { "type": "Point", "coordinates": [ 144.14377, -35.14965 ] } },
{ "type": "Feature", "properties": { "x1": "144.14402", "y1": "-35.14998", "x2": "144.14402", "y2": "-35.14998", "name": " water point shower", "": "" }, "geometry": { "type": "Point", "coordinates": [ 144.14402, -35.14998 ] } },
{ "type": "Feature", "properties": { "x1": "144.14418", "y1": "-35.1501", "x2": "144.14418", "y2": "-35.1501", "name": " water point ", "": "" }, "geometry": { "type": "Point", "coordinates": [ 144.14418, -35.1501 ] } },
{ "type": "Feature", "properties": { "x1": "144.14778", "y1": "-35.15169", "x2": "144.14778", "y2": "-35.15169", "name": " water point", "": "" }, "geometry": { "type": "Point", "coordinates": [ 144.14778, -35.15169 ] } },
{ "type": "Feature", "properties": { "x1": "144.14798", "y1": "-35.15165", "x2": "144.14798", "y2": "-35.15165", "name": " stop tap", "": " connection to ?2\"" }, "geometry": { "type": "Point", "coordinates": [ 144.14798, -35.15165 ] } },
{ "type": "Feature", "properties": { "x1": "144.14905", "y1": "-35.14901", "x2": "144.14905", "y2": "-35.14901", "name": " probable connection to ?2\"", "": " 2 star posts" }, "geometry": { "type": "Point", "coordinates": [ 144.14905, -35.14901 ] } },
{ "type": "Feature", "properties": { "x1": "144.14975", "y1": "-35.1498", "x2": "144.14975", "y2": "-35.1498", "name": " modified tree", "": "" }, "geometry": { "type": "Point", "coordinates": [ 144.14975, -35.1498 ] } },
{ "type": "Feature", "properties": { "x1": "144.14929", "y1": "-35.14965", "x2": "144.14929", "y2": "-35.14965", "name": " stop tap", "": " connection to ?2\"" }, "geometry": { "type": "Point", "coordinates": [ 144.14929, -35.14965 ] } },
{ "type": "Feature", "properties": { "x1": "144.14445", "y1": "-35.14929", "x2": "144.14445", "y2": "-35.14929", "name": " steel A frame structure", "": "" }, "geometry": { "type": "Point", "coordinates": [ 144.14445, -35.14929 ] } },
{ "type": "Feature", "properties": { "x1": "144.14558", "y1": "-35.14843", "x2": "144.14558", "y2": "-35.14843", "name": " water main T", "": " 2 stop taps" }, "geometry": { "type": "Point", "coordinates": [ 144.14558, -35.14843 ] } },
{ "type": "Feature", "properties": { "x1": "144.14599", "y1": "-35.14929", "x2": "144.14599", "y2": "-35.14929", "name": " water point? broken", "": "" }, "geometry": { "type": "Point", "coordinates": [ 144.14599, -35.14929 ] } },
{ "type": "Feature", "properties": { "x1": "144.14734", "y1": "-35.1499", "x2": "144.14734", "y2": "-35.1499", "name": " water point", "": "" }, "geometry": { "type": "Point", "coordinates": [ 144.14734, -35.1499 ] } },
{ "type": "Feature", "properties": { "x1": "144.14557", "y1": "-35.148", "x2": "144.14557", "y2": "-35.148", "name": " sand pile", "": "" }, "geometry": { "type": "Point", "coordinates": [ 144.14557, -35.148 ] } },
{ "type": "Feature", "properties": { "x1": "144.14631", "y1": "-35.15021", "x2": "144.14631", "y2": "-35.15021", "name": " water point", "": "" }, "geometry": { "type": "Point", "coordinates": [ 144.14631, -35.15021 ] } },
{ "type": "Feature", "properties": { "x1": "144.14953", "y1": "-35.14906", "x2": "144.14953", "y2": "-35.14906", "name": " T off ?1\"\/ stop tap", "": "" }, "geometry": { "type": "Point", "coordinates": [ 144.14953, -35.14906 ] } },
{ "type": "Feature", "properties": { "x1": "144.14408", "y1": "-35.1475", "x2": "144.14408", "y2": "-35.1475", "name": " Labyrinth extent e ", "": "" }, "geometry": { "type": "Point", "coordinates": [ 144.14408, -35.1475 ] } },
{ "type": "Feature", "properties": { "x1": "144.14188", "y1": "-35.14844", "x2": "144.14188", "y2": "-35.14844", "name": " The Sound Garden (track)", "": "" }, "geometry": { "type": "Point", "coordinates": [ 144.14188, -35.14844 ] } }
]
}
